{
  "2000": {
    "abbr": "ACU",
    "name": "Abilene Christian Wildcats",
    "location": "Abilene Christian",
    "lat": 32.449,
    "lng": -99.733
  },
  "2005": {
    "abbr": "AF",
    "name": "Air Force Falcons",
    "location": "Air Force",
    "lat": 38.998,
    "lng": -104.862
  },
  "2006": {
    "abbr": "AKR",
    "name": "Akron Zips",
    "location": "Akron",
    "lat": 41.076,
    "lng": -81.512
  },
  "2010": {
    "abbr": "AAMU",
    "name": "Alabama A&M Bulldogs",
    "location": "Alabama A&M",
    "lat": 34.783,
    "lng": -86.568
  },
  "333": {
    "abbr": "ALA",
    "name": "Alabama Crimson Tide",
    "location": "Alabama",
    "lat": 33.209,
    "lng": -87.569
  },
  "2011": {
    "abbr": "ALST",
    "name": "Alabama State Hornets",
    "location": "Alabama State",
    "lat": 32.364,
    "lng": -86.296
  },
  "2016": {
    "abbr": "ALCN",
    "name": "Alcorn State Braves",
    "location": "Alcorn State",
    "lat": 31.877,
    "lng": -90.898
  },
  "44": {
    "abbr": "AMER",
    "name": "American University Eagles",
    "location": "American University",
    "lat": 38.937,
    "lng": -77.089
  },
  "2026": {
    "abbr": "APP",
    "name": "App State Mountaineers",
    "location": "App State",
    "lat": 36.215,
    "lng": -81.688
  },
  "9": {
    "abbr": "ASU",
    "name": "Arizona State Sun Devils",
    "location": "Arizona State",
    "lat": 33.424,
    "lng": -111.928
  },
  "12": {
    "abbr": "ARIZ",
    "name": "Arizona Wildcats",
    "location": "Arizona",
    "lat": 32.228,
    "lng": -110.949
  },
  "8": {
    "abbr": "ARK",
    "name": "Arkansas Razorbacks",
    "location": "Arkansas",
    "lat": 36.068,
    "lng": -94.175
  },
  "2032": {
    "abbr": "ARST",
    "name": "Arkansas State Red Wolves",
    "location": "Arkansas State",
    "lat": 35.842,
    "lng": -90.676
  },
  "2029": {
    "abbr": "UAPB",
    "name": "Arkansas-Pine Bluff Golden Lions",
    "location": "Arkansas-Pine Bluff",
    "lat": 38.954,
    "lng": -95.252
  },
  "349": {
    "abbr": "ARMY",
    "name": "Army Black Knights",
    "location": "Army",
    "lat": 41.391,
    "lng": -73.957
  },
  "2": {
    "abbr": "AUB",
    "name": "Auburn Tigers",
    "location": "Auburn",
    "lat": 32.607,
    "lng": -85.488
  },
  "2046": {
    "abbr": "APSU",
    "name": "Austin Peay Governors",
    "location": "Austin Peay",
    "lat": 36.534,
    "lng": -87.359
  },
  "252": {
    "abbr": "BYU",
    "name": "BYU Cougars",
    "location": "BYU",
    "lat": 40.252,
    "lng": -111.649
  },
  "2050": {
    "abbr": "BALL",
    "name": "Ball State Cardinals",
    "location": "Ball State",
    "lat": 40.206,
    "lng": -85.409
  },
  "239": {
    "abbr": "BAY",
    "name": "Baylor Bears",
    "location": "Baylor",
    "lat": 31.549,
    "lng": -97.114
  },
  "91": {
    "abbr": "BELL",
    "name": "Bellarmine Knights",
    "location": "Bellarmine",
    "lat": 38.218,
    "lng": -85.69
  },
  "2057": {
    "abbr": "BEL",
    "name": "Belmont Bruins",
    "location": "Belmont",
    "lat": 36.133,
    "lng": -86.795
  },
  "2065": {
    "abbr": "BCU",
    "name": "Bethune-Cookman Wildcats",
    "location": "Bethune-Cookman",
    "lat": 29.185,
    "lng": -81.063
  },
  "2066": {
    "abbr": "BING",
    "name": "Binghamton Bearcats",
    "location": "Binghamton",
    "lat": 42.09,
    "lng": -75.968
  },
  "68": {
    "abbr": "BOIS",
    "name": "Boise State Broncos",
    "location": "Boise State",
    "lat": 43.603,
    "lng": -116.203
  },
  "103": {
    "abbr": "BC",
    "name": "Boston College Eagles",
    "location": "Boston College",
    "lat": 42.335,
    "lng": -71.169
  },
  "104": {
    "abbr": "BU",
    "name": "Boston University Terriers",
    "location": "Boston University",
    "lat": 42.351,
    "lng": -71.106
  },
  "189": {
    "abbr": "BGSU",
    "name": "Bowling Green Falcons",
    "location": "Bowling Green",
    "lat": 41.378,
    "lng": -83.651
  },
  "71": {
    "abbr": "BRAD",
    "name": "Bradley Braves",
    "location": "Bradley",
    "lat": 40.698,
    "lng": -89.615
  },
  "225": {
    "abbr": "BRWN",
    "name": "Brown Bears",
    "location": "Brown",
    "lat": 41.827,
    "lng": -71.403
  },
  "2803": {
    "abbr": "BRY",
    "name": "Bryant Bulldogs",
    "location": "Bryant",
    "lat": 41.846,
    "lng": -71.457
  },
  "2083": {
    "abbr": "BUCK",
    "name": "Bucknell Bison",
    "location": "Bucknell",
    "lat": 40.955,
    "lng": -76.884
  },
  "2084": {
    "abbr": "BUF",
    "name": "Buffalo Bulls",
    "location": "Buffalo",
    "lat": 42.886,
    "lng": -78.878
  },
  "2086": {
    "abbr": "BUT",
    "name": "Butler Bulldogs",
    "location": "Butler",
    "lat": 39.839,
    "lng": -86.169
  },
  "13": {
    "abbr": "CP",
    "name": "Cal Poly Mustangs",
    "location": "Cal Poly",
    "lat": 35.301,
    "lng": -120.66
  },
  "2934": {
    "abbr": "CSUB",
    "name": "Cal State Bakersfield Roadrunners",
    "location": "Cal State Bakersfield",
    "lat": 35.35,
    "lng": -119.104
  },
  "2239": {
    "abbr": "CSUF",
    "name": "Cal State Fullerton Titans",
    "location": "Cal State Fullerton",
    "lat": 33.883,
    "lng": -117.886
  },
  "2463": {
    "abbr": "CSUN",
    "name": "Cal State Northridge Matadors",
    "location": "Cal State Northridge",
    "lat": 34.24,
    "lng": -118.529
  },
  "2856": {
    "abbr": "CBU",
    "name": "California Baptist Lancers",
    "location": "California Baptist",
    "lat": 37.872,
    "lng": -122.259
  },
  "25": {
    "abbr": "CAL",
    "name": "California Golden Bears",
    "location": "California",
    "lat": 37.872,
    "lng": -122.259
  },
  "2097": {
    "abbr": "CAM",
    "name": "Campbell Fighting Camels",
    "location": "Campbell",
    "lat": 35.418,
    "lng": -78.86
  },
  "2099": {
    "abbr": "CAN",
    "name": "Canisius Golden Griffins",
    "location": "Canisius",
    "lat": 42.937,
    "lng": -78.838
  },
  "2110": {
    "abbr": "CARK",
    "name": "Central Arkansas Bears",
    "location": "Central Arkansas",
    "lat": 38.954,
    "lng": -95.252
  },
  "2115": {
    "abbr": "CCSU",
    "name": "Central Connecticut Blue Devils",
    "location": "Central Connecticut",
    "lat": 41.68,
    "lng": -72.779
  },
  "2117": {
    "abbr": "CMU",
    "name": "Central Michigan Chippewas",
    "location": "Central Michigan",
    "lat": 42.281,
    "lng": -83.743
  },
  "232": {
    "abbr": "COFC",
    "name": "Charleston Cougars",
    "location": "Charleston",
    "lat": 32.783,
    "lng": -79.937
  },
  "2127": {
    "abbr": "CHSO",
    "name": "Charleston Southern Buccaneers",
    "location": "Charleston Southern",
    "lat": 30.526,
    "lng": -91.188
  },
  "2429": {
    "abbr": "CLT",
    "name": "Charlotte 49ers",
    "location": "Charlotte",
    "lat": 35.308,
    "lng": -80.733
  },
  "236": {
    "abbr": "UTC",
    "name": "Chattanooga Mocs",
    "location": "Chattanooga",
    "lat": 35.046,
    "lng": -85.309
  },
  "2130": {
    "abbr": "CHST",
    "name": "Chicago State Cougars",
    "location": "Chicago State",
    "lat": 41.72,
    "lng": -87.613
  },
  "2132": {
    "abbr": "CIN",
    "name": "Cincinnati Bearcats",
    "location": "Cincinnati",
    "lat": 39.131,
    "lng": -84.515
  },
  "228": {
    "abbr": "CLEM",
    "name": "Clemson Tigers",
    "location": "Clemson",
    "lat": 34.683,
    "lng": -82.837
  },
  "325": {
    "abbr": "CLE",
    "name": "Cleveland State Vikings",
    "location": "Cleveland State",
    "lat": 41.502,
    "lng": -81.675
  },
  "324": {
    "abbr": "CCU",
    "name": "Coastal Carolina Chanticleers",
    "location": "Coastal Carolina",
    "lat": 33.793,
    "lng": -79.012
  },
  "2142": {
    "abbr": "COLG",
    "name": "Colgate Raiders",
    "location": "Colgate",
    "lat": 42.818,
    "lng": -75.539
  },
  "38": {
    "abbr": "COLO",
    "name": "Colorado Buffaloes",
    "location": "Colorado",
    "lat": 40.007,
    "lng": -105.265
  },
  "36": {
    "abbr": "CSU",
    "name": "Colorado State Rams",
    "location": "Colorado State",
    "lat": 40.574,
    "lng": -105.085
  },
  "171": {
    "abbr": "COLU",
    "name": "Columbia Lions",
    "location": "Columbia",
    "lat": 40.808,
    "lng": -73.962
  },
  "2154": {
    "abbr": "COPP",
    "name": "Coppin State Eagles",
    "location": "Coppin State",
    "lat": 39.311,
    "lng": -76.648
  },
  "172": {
    "abbr": "COR",
    "name": "Cornell Big Red",
    "location": "Cornell",
    "lat": 42.447,
    "lng": -76.483
  },
  "156": {
    "abbr": "CREI",
    "name": "Creighton Bluejays",
    "location": "Creighton",
    "lat": 41.257,
    "lng": -95.935
  },
  "159": {
    "abbr": "DART",
    "name": "Dartmouth Big Green",
    "location": "Dartmouth",
    "lat": 43.703,
    "lng": -72.289
  },
  "2166": {
    "abbr": "DAV",
    "name": "Davidson Wildcats",
    "location": "Davidson",
    "lat": 35.5,
    "lng": -80.844
  },
  "2168": {
    "abbr": "DAY",
    "name": "Dayton Flyers",
    "location": "Dayton",
    "lat": 39.74,
    "lng": -84.179
  },
  "305": {
    "abbr": "DEP",
    "name": "DePaul Blue Demons",
    "location": "DePaul",
    "lat": 41.878,
    "lng": -87.64
  },
  "48": {
    "abbr": "DEL",
    "name": "Delaware Blue Hens",
    "location": "Delaware",
    "lat": 39.678,
    "lng": -75.752
  },
  "2169": {
    "abbr": "DSU",
    "name": "Delaware State Hornets",
    "location": "Delaware State",
    "lat": 39.186,
    "lng": -75.54
  },
  "2172": {
    "abbr": "DEN",
    "name": "Denver Pioneers",
    "location": "Denver",
    "lat": 39.678,
    "lng": -104.962
  },
  "2174": {
    "abbr": "DETM",
    "name": "Detroit Mercy Titans",
    "location": "Detroit Mercy",
    "lat": 42.419,
    "lng": -83.14
  },
  "2181": {
    "abbr": "DRKE",
    "name": "Drake Bulldogs",
    "location": "Drake",
    "lat": 41.601,
    "lng": -93.654
  },
  "2182": {
    "abbr": "DREX",
    "name": "Drexel Dragons",
    "location": "Drexel",
    "lat": 39.957,
    "lng": -75.19
  },
  "150": {
    "abbr": "DUKE",
    "name": "Duke Blue Devils",
    "location": "Duke",
    "lat": 36.001,
    "lng": -78.939
  },
  "2184": {
    "abbr": "DUQ",
    "name": "Duquesne Dukes",
    "location": "Duquesne",
    "lat": 40.436,
    "lng": -79.991
  },
  "151": {
    "abbr": "ECU",
    "name": "East Carolina Pirates",
    "location": "East Carolina",
    "lat": 35.607,
    "lng": -77.367
  },
  "2193": {
    "abbr": "ETSU",
    "name": "East Tennessee State Buccaneers",
    "location": "East Tennessee State",
    "lat": 35.955,
    "lng": -83.93
  },
  "2837": {
    "abbr": "ETAM",
    "name": "East Texas A&M Lions",
    "location": "East Texas A&M",
    "lat": 30.284,
    "lng": -97.733
  },
  "2197": {
    "abbr": "EIU",
    "name": "Eastern Illinois Panthers",
    "location": "Eastern Illinois",
    "lat": 39.479,
    "lng": -88.175
  },
  "2198": {
    "abbr": "EKU",
    "name": "Eastern Kentucky Colonels",
    "location": "Eastern Kentucky",
    "lat": 37.751,
    "lng": -84.295
  },
  "2199": {
    "abbr": "EMU",
    "name": "Eastern Michigan Eagles",
    "location": "Eastern Michigan",
    "lat": 42.281,
    "lng": -83.743
  },
  "331": {
    "abbr": "EWU",
    "name": "Eastern Washington Eagles",
    "location": "Eastern Washington",
    "lat": 47.655,
    "lng": -122.303
  },
  "2210": {
    "abbr": "ELON",
    "name": "Elon Phoenix",
    "location": "Elon",
    "lat": 36.102,
    "lng": -79.503
  },
  "339": {
    "abbr": "EVAN",
    "name": "Evansville Purple Aces",
    "location": "Evansville",
    "lat": 37.978,
    "lng": -87.535
  },
  "2217": {
    "abbr": "FAIR",
    "name": "Fairfield Stags",
    "location": "Fairfield",
    "lat": 41.173,
    "lng": -73.256
  },
  "161": {
    "abbr": "FDU",
    "name": "Fairleigh Dickinson Knights",
    "location": "Fairleigh Dickinson",
    "lat": 40.909,
    "lng": -74.121
  },
  "50": {
    "abbr": "FAMU",
    "name": "Florida A&M Rattlers",
    "location": "Florida A&M",
    "lat": 30.425,
    "lng": -84.281
  },
  "2226": {
    "abbr": "FAU",
    "name": "Florida Atlantic Owls",
    "location": "Florida Atlantic",
    "lat": 29.65,
    "lng": -82.343
  },
  "57": {
    "abbr": "FLA",
    "name": "Florida Gators",
    "location": "Florida",
    "lat": 29.65,
    "lng": -82.343
  },
  "526": {
    "abbr": "FGCU",
    "name": "Florida Gulf Coast Eagles",
    "location": "Florida Gulf Coast",
    "lat": 29.65,
    "lng": -82.343
  },
  "2229": {
    "abbr": "FIU",
    "name": "Florida International Panthers",
    "location": "Florida International",
    "lat": 29.65,
    "lng": -82.343
  },
  "52": {
    "abbr": "FSU",
    "name": "Florida State Seminoles",
    "location": "Florida State",
    "lat": 30.438,
    "lng": -84.281
  },
  "2230": {
    "abbr": "FOR",
    "name": "Fordham Rams",
    "location": "Fordham",
    "lat": 40.861,
    "lng": -73.886
  },
  "278": {
    "abbr": "FRES",
    "name": "Fresno State Bulldogs",
    "location": "Fresno State",
    "lat": 36.813,
    "lng": -119.748
  },
  "231": {
    "abbr": "FUR",
    "name": "Furman Paladins",
    "location": "Furman",
    "lat": 34.925,
    "lng": -82.44
  },
  "2241": {
    "abbr": "GWEB",
    "name": "Gardner-Webb Runnin' Bulldogs",
    "location": "Gardner-Webb",
    "lat": 35.233,
    "lng": -81.684
  },
  "2244": {
    "abbr": "GMU",
    "name": "George Mason Patriots",
    "location": "George Mason",
    "lat": 38.832,
    "lng": -77.309
  },
  "45": {
    "abbr": "GW",
    "name": "George Washington Revolutionaries",
    "location": "George Washington",
    "lat": 38.9,
    "lng": -77.049
  },
  "46": {
    "abbr": "GTWN",
    "name": "Georgetown Hoyas",
    "location": "Georgetown",
    "lat": 38.908,
    "lng": -77.073
  },
  "61": {
    "abbr": "UGA",
    "name": "Georgia Bulldogs",
    "location": "Georgia",
    "lat": 33.948,
    "lng": -83.373
  },
  "290": {
    "abbr": "GASO",
    "name": "Georgia Southern Eagles",
    "location": "Georgia Southern",
    "lat": 32.422,
    "lng": -81.783
  },
  "2247": {
    "abbr": "GAST",
    "name": "Georgia State Panthers",
    "location": "Georgia State",
    "lat": 33.753,
    "lng": -84.385
  },
  "59": {
    "abbr": "GT",
    "name": "Georgia Tech Yellow Jackets",
    "location": "Georgia Tech",
    "lat": 33.772,
    "lng": -84.393
  },
  "2250": {
    "abbr": "GONZ",
    "name": "Gonzaga Bulldogs",
    "location": "Gonzaga",
    "lat": 47.667,
    "lng": -117.403
  },
  "2755": {
    "abbr": "GRAM",
    "name": "Grambling Tigers",
    "location": "Grambling",
    "lat": 32.524,
    "lng": -92.714
  },
  "2253": {
    "abbr": "GCU",
    "name": "Grand Canyon Lopes",
    "location": "Grand Canyon",
    "lat": 33.508,
    "lng": -112.124
  },
  "2739": {
    "abbr": "GB",
    "name": "Green Bay Phoenix",
    "location": "Green Bay",
    "lat": 44.531,
    "lng": -87.924
  },
  "2261": {
    "abbr": "HAMP",
    "name": "Hampton Pirates",
    "location": "Hampton",
    "lat": 37.022,
    "lng": -76.336
  },
  "108": {
    "abbr": "HARV",
    "name": "Harvard Crimson",
    "location": "Harvard",
    "lat": 42.377,
    "lng": -71.117
  },
  "62": {
    "abbr": "HAW",
    "name": "Hawai'i Rainbow Warriors",
    "location": "Hawai'i",
    "lat": 21.297,
    "lng": -157.817
  },
  "2272": {
    "abbr": "HPU",
    "name": "High Point Panthers",
    "location": "High Point",
    "lat": 35.971,
    "lng": -79.995
  },
  "2275": {
    "abbr": "HOF",
    "name": "Hofstra Pride",
    "location": "Hofstra",
    "lat": 40.714,
    "lng": -73.601
  },
  "107": {
    "abbr": "HC",
    "name": "Holy Cross Crusaders",
    "location": "Holy Cross",
    "lat": 42.237,
    "lng": -71.81
  },
  "2277": {
    "abbr": "HCU",
    "name": "Houston Christian Huskies",
    "location": "Houston Christian",
    "lat": 29.722,
    "lng": -95.343
  },
  "248": {
    "abbr": "HOU",
    "name": "Houston Cougars",
    "location": "Houston",
    "lat": 29.722,
    "lng": -95.343
  },
  "47": {
    "abbr": "HOW",
    "name": "Howard Bison",
    "location": "Howard",
    "lat": 38.922,
    "lng": -77.02
  },
  "85": {
    "abbr": "IUIN",
    "name": "IU Indianapolis Jaguars",
    "location": "IU Indianapolis",
    "lat": 39.168,
    "lng": -86.526
  },
  "304": {
    "abbr": "IDST",
    "name": "Idaho State Bengals",
    "location": "Idaho State",
    "lat": 42.862,
    "lng": -112.431
  },
  "70": {
    "abbr": "IDHO",
    "name": "Idaho Vandals",
    "location": "Idaho",
    "lat": 46.727,
    "lng": -117.012
  },
  "356": {
    "abbr": "ILL",
    "name": "Illinois Fighting Illini",
    "location": "Illinois",
    "lat": 40.102,
    "lng": -88.227
  },
  "2287": {
    "abbr": "ILST",
    "name": "Illinois State Redbirds",
    "location": "Illinois State",
    "lat": 40.51,
    "lng": -88.998
  },
  "2916": {
    "abbr": "UIW",
    "name": "Incarnate Word Cardinals",
    "location": "Incarnate Word",
    "lat": 29.462,
    "lng": -98.468
  },
  "84": {
    "abbr": "IU",
    "name": "Indiana Hoosiers",
    "location": "Indiana",
    "lat": 39.168,
    "lng": -86.526
  },
  "282": {
    "abbr": "INST",
    "name": "Indiana State Sycamores",
    "location": "Indiana State",
    "lat": 39.47,
    "lng": -87.407
  },
  "314": {
    "abbr": "IONA",
    "name": "Iona Gaels",
    "location": "Iona",
    "lat": 40.932,
    "lng": -73.886
  },
  "2294": {
    "abbr": "IOWA",
    "name": "Iowa Hawkeyes",
    "location": "Iowa",
    "lat": 41.661,
    "lng": -91.53
  },
  "66": {
    "abbr": "ISU",
    "name": "Iowa State Cyclones",
    "location": "Iowa State",
    "lat": 42.027,
    "lng": -93.635
  },
  "2296": {
    "abbr": "JKST",
    "name": "Jackson State Tigers",
    "location": "Jackson State",
    "lat": 32.297,
    "lng": -90.209
  },
  "294": {
    "abbr": "JAX",
    "name": "Jacksonville Dolphins",
    "location": "Jacksonville",
    "lat": 33.822,
    "lng": -85.764
  },
  "55": {
    "abbr": "JXST",
    "name": "Jacksonville State Gamecocks",
    "location": "Jacksonville State",
    "lat": 33.822,
    "lng": -85.764
  },
  "256": {
    "abbr": "JMU",
    "name": "James Madison Dukes",
    "location": "James Madison",
    "lat": 38.434,
    "lng": -78.87
  },
  "140": {
    "abbr": "KC",
    "name": "Kansas City Roos",
    "location": "Kansas City",
    "lat": 38.954,
    "lng": -95.252
  },
  "2305": {
    "abbr": "KU",
    "name": "Kansas Jayhawks",
    "location": "Kansas",
    "lat": 38.954,
    "lng": -95.252
  },
  "2306": {
    "abbr": "KSU",
    "name": "Kansas State Wildcats",
    "location": "Kansas State",
    "lat": 39.187,
    "lng": -96.572
  },
  "338": {
    "abbr": "KENN",
    "name": "Kennesaw State Owls",
    "location": "Kennesaw State",
    "lat": 34.038,
    "lng": -84.581
  },
  "2309": {
    "abbr": "KENT",
    "name": "Kent State Golden Flashes",
    "location": "Kent State",
    "lat": 41.149,
    "lng": -81.342
  },
  "96": {
    "abbr": "UK",
    "name": "Kentucky Wildcats",
    "location": "Kentucky",
    "lat": 38.03,
    "lng": -84.504
  },
  "99": {
    "abbr": "LSU",
    "name": "LSU Tigers",
    "location": "LSU",
    "lat": 30.413,
    "lng": -91.18
  },
  "2325": {
    "abbr": "LAS",
    "name": "La Salle Explorers",
    "location": "La Salle",
    "lat": 40.038,
    "lng": -75.155
  },
  "322": {
    "abbr": "LAF",
    "name": "Lafayette Leopards",
    "location": "Lafayette",
    "lat": 40.697,
    "lng": -75.212
  },
  "2320": {
    "abbr": "LAM",
    "name": "Lamar Cardinals",
    "location": "Lamar",
    "lat": 30.043,
    "lng": -94.077
  },
  "2330": {
    "abbr": "LEM",
    "name": "Le Moyne Dolphins",
    "location": "Le Moyne",
    "lat": 43.041,
    "lng": -76.069
  },
  "2329": {
    "abbr": "LEH",
    "name": "Lehigh Mountain Hawks",
    "location": "Lehigh",
    "lat": 40.607,
    "lng": -75.377
  },
  "2335": {
    "abbr": "LIB",
    "name": "Liberty Flames",
    "location": "Liberty",
    "lat": 37.353,
    "lng": -79.173
  },
  "288": {
    "abbr": "LIP",
    "name": "Lipscomb Bisons",
    "location": "Lipscomb",
    "lat": 36.176,
    "lng": -86.808
  },
  "2031": {
    "abbr": "LR",
    "name": "Little Rock Trojans",
    "location": "Little Rock",
    "lat": 34.747,
    "lng": -92.276
  },
  "299": {
    "abbr": "LBSU",
    "name": "Long Beach State Beach",
    "location": "Long Beach State",
    "lat": 33.783,
    "lng": -118.115
  },
  "112358": {
    "abbr": "LIU",
    "name": "Long Island University Sharks",
    "location": "Long Island University",
    "lat": 40.689,
    "lng": -73.978
  },
  "2344": {
    "abbr": "LONG",
    "name": "Longwood Lancers",
    "location": "Longwood",
    "lat": 37.297,
    "lng": -78.396
  },
  "309": {
    "abbr": "UL",
    "name": "Louisiana Ragin' Cajuns",
    "location": "Louisiana",
    "lat": 30.21,
    "lng": -92.022
  },
  "2348": {
    "abbr": "LT",
    "name": "Louisiana Tech Bulldogs",
    "location": "Louisiana Tech",
    "lat": 32.525,
    "lng": -92.648
  },
  "97": {
    "abbr": "LOU",
    "name": "Louisville Cardinals",
    "location": "Louisville",
    "lat": 38.253,
    "lng": -85.759
  },
  "2350": {
    "abbr": "LUC",
    "name": "Loyola Chicago Ramblers",
    "location": "Loyola Chicago",
    "lat": 41.999,
    "lng": -87.658
  },
  "2352": {
    "abbr": "L-MD",
    "name": "Loyola Maryland Greyhounds",
    "location": "Loyola Maryland",
    "lat": 39.348,
    "lng": -76.624
  },
  "2351": {
    "abbr": "LMU",
    "name": "Loyola Marymount Lions",
    "location": "Loyola Marymount",
    "lat": 33.969,
    "lng": -118.418
  },
  "311": {
    "abbr": "ME",
    "name": "Maine Black Bears",
    "location": "Maine",
    "lat": 44.901,
    "lng": -68.672
  },
  "2363": {
    "abbr": "MAN",
    "name": "Manhattan Jaspers",
    "location": "Manhattan",
    "lat": 40.89,
    "lng": -73.901
  },
  "2368": {
    "abbr": "MRST",
    "name": "Marist Red Foxes",
    "location": "Marist",
    "lat": 41.727,
    "lng": -73.932
  },
  "269": {
    "abbr": "MARQ",
    "name": "Marquette Golden Eagles",
    "location": "Marquette",
    "lat": 43.039,
    "lng": -87.93
  },
  "276": {
    "abbr": "MRSH",
    "name": "Marshall Thundering Herd",
    "location": "Marshall",
    "lat": 38.423,
    "lng": -82.425
  },
  "2379": {
    "abbr": "UMES",
    "name": "Maryland Eastern Shore Hawks",
    "location": "Maryland Eastern Shore",
    "lat": 38.481,
    "lng": -75.626
  },
  "120": {
    "abbr": "MD",
    "name": "Maryland Terrapins",
    "location": "Maryland",
    "lat": 38.986,
    "lng": -76.944
  },
  "113": {
    "abbr": "MASS",
    "name": "Massachusetts Minutemen",
    "location": "Massachusetts",
    "lat": 42.387,
    "lng": -72.53
  },
  "2377": {
    "abbr": "MCN",
    "name": "McNeese Cowboys",
    "location": "McNeese",
    "lat": 30.207,
    "lng": -93.208
  },
  "235": {
    "abbr": "MEM",
    "name": "Memphis Tigers",
    "location": "Memphis",
    "lat": 35.149,
    "lng": -90.049
  },
  "2382": {
    "abbr": "MER",
    "name": "Mercer Bears",
    "location": "Mercer",
    "lat": 32.831,
    "lng": -83.65
  },
  "2385": {
    "abbr": "MERC",
    "name": "Mercyhurst Lakers",
    "location": "Mercyhurst",
    "lat": 42.099,
    "lng": -80.094
  },
  "2771": {
    "abbr": "MRMK",
    "name": "Merrimack Warriors",
    "location": "Merrimack",
    "lat": 42.712,
    "lng": -71.121
  },
  "193": {
    "abbr": "M-OH",
    "name": "Miami (OH) RedHawks",
    "location": "Miami (OH)",
    "lat": 25.762,
    "lng": -80.192
  },
  "2390": {
    "abbr": "MIA",
    "name": "Miami Hurricanes",
    "location": "Miami",
    "lat": 25.762,
    "lng": -80.192
  },
  "127": {
    "abbr": "MSU",
    "name": "Michigan State Spartans",
    "location": "Michigan State",
    "lat": 42.724,
    "lng": -84.481
  },
  "130": {
    "abbr": "MICH",
    "name": "Michigan Wolverines",
    "location": "Michigan",
    "lat": 42.281,
    "lng": -83.743
  },
  "2393": {
    "abbr": "MTSU",
    "name": "Middle Tennessee Blue Raiders",
    "location": "Middle Tennessee",
    "lat": 35.85,
    "lng": -86.369
  },
  "270": {
    "abbr": "MILW",
    "name": "Milwaukee Panthers",
    "location": "Milwaukee",
    "lat": 43.078,
    "lng": -87.881
  },
  "135": {
    "abbr": "MINN",
    "name": "Minnesota Golden Gophers",
    "location": "Minnesota",
    "lat": 44.974,
    "lng": -93.228
  },
  "344": {
    "abbr": "MSST",
    "name": "Mississippi State Bulldogs",
    "location": "Mississippi State",
    "lat": 33.456,
    "lng": -88.79
  },
  "2400": {
    "abbr": "MVSU",
    "name": "Mississippi Valley State Delta Devils",
    "location": "Mississippi Valley State",
    "lat": 33.497,
    "lng": -90.723
  },
  "2623": {
    "abbr": "MOST",
    "name": "Missouri State Bears",
    "location": "Missouri State",
    "lat": 37.198,
    "lng": -93.282
  },
  "142": {
    "abbr": "MIZ",
    "name": "Missouri Tigers",
    "location": "Missouri",
    "lat": 38.94,
    "lng": -92.328
  },
  "2405": {
    "abbr": "MONM",
    "name": "Monmouth Hawks",
    "location": "Monmouth",
    "lat": 40.277,
    "lng": -74.006
  },
  "149": {
    "abbr": "MONT",
    "name": "Montana Grizzlies",
    "location": "Montana",
    "lat": 46.862,
    "lng": -113.984
  },
  "147": {
    "abbr": "MTST",
    "name": "Montana State Bobcats",
    "location": "Montana State",
    "lat": 45.667,
    "lng": -111.05
  },
  "2413": {
    "abbr": "MORE",
    "name": "Morehead State Eagles",
    "location": "Morehead State",
    "lat": 38.185,
    "lng": -83.435
  },
  "2415": {
    "abbr": "MORG",
    "name": "Morgan State Bears",
    "location": "Morgan State",
    "lat": 39.344,
    "lng": -76.582
  },
  "116": {
    "abbr": "MSM",
    "name": "Mount St. Mary's Mountaineers",
    "location": "Mount St. Mary's",
    "lat": 39.697,
    "lng": -77.371
  },
  "93": {
    "abbr": "MUR",
    "name": "Murray State Racers",
    "location": "Murray State",
    "lat": 36.612,
    "lng": -88.318
  },
  "152": {
    "abbr": "NCSU",
    "name": "NC State Wolfpack",
    "location": "NC State",
    "lat": 35.787,
    "lng": -78.644
  },
  "2885": {
    "abbr": "NJIT",
    "name": "NJIT Highlanders",
    "location": "NJIT",
    "lat": 40.742,
    "lng": -74.178
  },
  "2426": {
    "abbr": "NAVY",
    "name": "Navy Midshipmen",
    "location": "Navy",
    "lat": 38.984,
    "lng": -76.489
  },
  "158": {
    "abbr": "NEB",
    "name": "Nebraska Cornhuskers",
    "location": "Nebraska",
    "lat": 40.82,
    "lng": -96.7
  },
  "2440": {
    "abbr": "NEV",
    "name": "Nevada Wolf Pack",
    "location": "Nevada",
    "lat": 39.544,
    "lng": -119.816
  },
  "160": {
    "abbr": "UNH",
    "name": "New Hampshire Wildcats",
    "location": "New Hampshire",
    "lat": 43.134,
    "lng": -70.934
  },
  "2441": {
    "abbr": "NHVN",
    "name": "New Haven Chargers",
    "location": "New Haven",
    "lat": 41.308,
    "lng": -72.928
  },
  "167": {
    "abbr": "UNM",
    "name": "New Mexico Lobos",
    "location": "New Mexico",
    "lat": 35.084,
    "lng": -106.619
  },
  "166": {
    "abbr": "NMSU",
    "name": "New Mexico State Aggies",
    "location": "New Mexico State",
    "lat": 32.282,
    "lng": -106.748
  },
  "2443": {
    "abbr": "UNO",
    "name": "New Orleans Privateers",
    "location": "New Orleans",
    "lat": 30.028,
    "lng": -90.067
  },
  "315": {
    "abbr": "NIA",
    "name": "Niagara Purple Eagles",
    "location": "Niagara",
    "lat": 43.137,
    "lng": -79.016
  },
  "2447": {
    "abbr": "NICH",
    "name": "Nicholls Colonels",
    "location": "Nicholls",
    "lat": 29.791,
    "lng": -90.821
  },
  "2450": {
    "abbr": "NORF",
    "name": "Norfolk State Spartans",
    "location": "Norfolk State",
    "lat": 36.885,
    "lng": -76.26
  },
  "2453": {
    "abbr": "UNA",
    "name": "North Alabama Lions",
    "location": "North Alabama",
    "lat": 34.783,
    "lng": -87.685
  },
  "2448": {
    "abbr": "NCAT",
    "name": "North Carolina A&T Aggies",
    "location": "North Carolina A&T",
    "lat": 36.069,
    "lng": -79.776
  },
  "2428": {
    "abbr": "NCCU",
    "name": "North Carolina Central Eagles",
    "location": "North Carolina Central",
    "lat": 35.905,
    "lng": -79.047
  },
  "153": {
    "abbr": "UNC",
    "name": "North Carolina Tar Heels",
    "location": "North Carolina",
    "lat": 35.905,
    "lng": -79.047
  },
  "155": {
    "abbr": "UND",
    "name": "North Dakota Fighting Hawks",
    "location": "North Dakota",
    "lat": 47.921,
    "lng": -97.06
  },
  "2449": {
    "abbr": "NDSU",
    "name": "North Dakota State Bison",
    "location": "North Dakota State",
    "lat": 46.897,
    "lng": -96.801
  },
  "2454": {
    "abbr": "UNF",
    "name": "North Florida Ospreys",
    "location": "North Florida",
    "lat": 29.65,
    "lng": -82.343
  },
  "249": {
    "abbr": "UNT",
    "name": "North Texas Mean Green",
    "location": "North Texas",
    "lat": 33.21,
    "lng": -97.148
  },
  "111": {
    "abbr": "NE",
    "name": "Northeastern Huskies",
    "location": "Northeastern",
    "lat": 42.34,
    "lng": -71.089
  },
  "2464": {
    "abbr": "NAU",
    "name": "Northern Arizona Lumberjacks",
    "location": "Northern Arizona",
    "lat": 32.228,
    "lng": -110.949
  },
  "2458": {
    "abbr": "UNCO",
    "name": "Northern Colorado Bears",
    "location": "Northern Colorado",
    "lat": 40.397,
    "lng": -104.696
  },
  "2459": {
    "abbr": "NIU",
    "name": "Northern Illinois Huskies",
    "location": "Northern Illinois",
    "lat": 41.934,
    "lng": -88.77
  },
  "2460": {
    "abbr": "UNI",
    "name": "Northern Iowa Panthers",
    "location": "Northern Iowa",
    "lat": 42.514,
    "lng": -92.462
  },
  "94": {
    "abbr": "NKU",
    "name": "Northern Kentucky Norse",
    "location": "Northern Kentucky",
    "lat": 39.03,
    "lng": -84.465
  },
  "2466": {
    "abbr": "NWST",
    "name": "Northwestern State Demons",
    "location": "Northwestern State",
    "lat": 42.06,
    "lng": -87.675
  },
  "77": {
    "abbr": "NU",
    "name": "Northwestern Wildcats",
    "location": "Northwestern",
    "lat": 42.06,
    "lng": -87.675
  },
  "87": {
    "abbr": "ND",
    "name": "Notre Dame Fighting Irish",
    "location": "Notre Dame",
    "lat": 41.705,
    "lng": -86.235
  },
  "2473": {
    "abbr": "OAK",
    "name": "Oakland Golden Grizzlies",
    "location": "Oakland",
    "lat": 42.674,
    "lng": -83.218
  },
  "195": {
    "abbr": "OHIO",
    "name": "Ohio Bobcats",
    "location": "Ohio",
    "lat": 39.324,
    "lng": -82.101
  },
  "194": {
    "abbr": "OSU",
    "name": "Ohio State Buckeyes",
    "location": "Ohio State",
    "lat": 40.007,
    "lng": -83.031
  },
  "201": {
    "abbr": "OU",
    "name": "Oklahoma Sooners",
    "location": "Oklahoma",
    "lat": 35.208,
    "lng": -97.443
  },
  "197": {
    "abbr": "OKST",
    "name": "Oklahoma State Cowboys",
    "location": "Oklahoma State",
    "lat": 36.126,
    "lng": -97.07
  },
  "295": {
    "abbr": "ODU",
    "name": "Old Dominion Monarchs",
    "location": "Old Dominion",
    "lat": 36.886,
    "lng": -76.305
  },
  "145": {
    "abbr": "MISS",
    "name": "Ole Miss Rebels",
    "location": "Ole Miss",
    "lat": 34.36,
    "lng": -89.534
  },
  "2437": {
    "abbr": "OMA",
    "name": "Omaha Mavericks",
    "location": "Omaha",
    "lat": 41.257,
    "lng": -95.935
  },
  "198": {
    "abbr": "ORU",
    "name": "Oral Roberts Golden Eagles",
    "location": "Oral Roberts",
    "lat": 36.06,
    "lng": -95.945
  },
  "2483": {
    "abbr": "ORE",
    "name": "Oregon Ducks",
    "location": "Oregon",
    "lat": 44.046,
    "lng": -123.074
  },
  "204": {
    "abbr": "ORST",
    "name": "Oregon State Beavers",
    "location": "Oregon State",
    "lat": 44.046,
    "lng": -123.074
  },
  "279": {
    "abbr": "PAC",
    "name": "Pacific Tigers",
    "location": "Pacific",
    "lat": 37.979,
    "lng": -121.311
  },
  "213": {
    "abbr": "PSU",
    "name": "Penn State Nittany Lions",
    "location": "Penn State",
    "lat": 40.799,
    "lng": -77.86
  },
  "219": {
    "abbr": "PENN",
    "name": "Pennsylvania Quakers",
    "location": "Pennsylvania",
    "lat": 39.951,
    "lng": -75.193
  },
  "2492": {
    "abbr": "PEPP",
    "name": "Pepperdine Waves",
    "location": "Pepperdine",
    "lat": 34.045,
    "lng": -118.709
  },
  "221": {
    "abbr": "PITT",
    "name": "Pittsburgh Panthers",
    "location": "Pittsburgh",
    "lat": 40.441,
    "lng": -79.996
  },
  "2501": {
    "abbr": "PORT",
    "name": "Portland Pilots",
    "location": "Portland",
    "lat": 45.505,
    "lng": -122.675
  },
  "2502": {
    "abbr": "PRST",
    "name": "Portland State Vikings",
    "location": "Portland State",
    "lat": 45.512,
    "lng": -122.685
  },
  "2504": {
    "abbr": "PV",
    "name": "Prairie View A&M Panthers",
    "location": "Prairie View A&M",
    "lat": 30.088,
    "lng": -95.985
  },
  "2506": {
    "abbr": "PRES",
    "name": "Presbyterian Blue Hose",
    "location": "Presbyterian",
    "lat": 34.185,
    "lng": -81.881
  },
  "163": {
    "abbr": "PRIN",
    "name": "Princeton Tigers",
    "location": "Princeton",
    "lat": 40.349,
    "lng": -74.652
  },
  "2507": {
    "abbr": "PROV",
    "name": "Providence Friars",
    "location": "Providence",
    "lat": 41.824,
    "lng": -71.413
  },
  "2509": {
    "abbr": "PUR",
    "name": "Purdue Boilermakers",
    "location": "Purdue",
    "lat": 40.424,
    "lng": -86.921
  },
  "2870": {
    "abbr": "PFW",
    "name": "Purdue Fort Wayne Mastodons",
    "location": "Purdue Fort Wayne",
    "lat": 40.424,
    "lng": -86.921
  },
  "2514": {
    "abbr": "QUIN",
    "name": "Quinnipiac Bobcats",
    "location": "Quinnipiac",
    "lat": 41.419,
    "lng": -72.893
  },
  "2515": {
    "abbr": "RAD",
    "name": "Radford Highlanders",
    "location": "Radford",
    "lat": 37.135,
    "lng": -80.552
  },
  "227": {
    "abbr": "URI",
    "name": "Rhode Island Rams",
    "location": "Rhode Island",
    "lat": 41.485,
    "lng": -71.527
  },
  "242": {
    "abbr": "RICE",
    "name": "Rice Owls",
    "location": "Rice",
    "lat": 29.717,
    "lng": -95.402
  },
  "257": {
    "abbr": "RICH",
    "name": "Richmond Spiders",
    "location": "Richmond",
    "lat": 37.575,
    "lng": -77.54
  },
  "2520": {
    "abbr": "RID",
    "name": "Rider Broncs",
    "location": "Rider",
    "lat": 40.278,
    "lng": -74.753
  },
  "2523": {
    "abbr": "RMU",
    "name": "Robert Morris Colonials",
    "location": "Robert Morris",
    "lat": 40.519,
    "lng": -80.184
  },
  "164": {
    "abbr": "RUTG",
    "name": "Rutgers Scarlet Knights",
    "location": "Rutgers",
    "lat": 40.501,
    "lng": -74.449
  },
  "2545": {
    "abbr": "SELA",
    "name": "SE Louisiana Lions",
    "location": "SE Louisiana",
    "lat": 30.516,
    "lng": -90.462
  },
  "2565": {
    "abbr": "SIUE",
    "name": "SIU Edwardsville Cougars",
    "location": "SIU Edwardsville",
    "lat": 38.794,
    "lng": -89.998
  },
  "2567": {
    "abbr": "SMU",
    "name": "SMU Mustangs",
    "location": "SMU",
    "lat": 32.843,
    "lng": -96.783
  },
  "16": {
    "abbr": "SAC",
    "name": "Sacramento State Hornets",
    "location": "Sacramento State",
    "lat": 38.561,
    "lng": -121.423
  },
  "2529": {
    "abbr": "SHU",
    "name": "Sacred Heart Pioneers",
    "location": "Sacred Heart",
    "lat": 41.188,
    "lng": -73.188
  },
  "2598": {
    "abbr": "SFPA",
    "name": "Saint Francis Red Flash",
    "location": "Saint Francis",
    "lat": 40.503,
    "lng": -78.637
  },
  "2603": {
    "abbr": "JOES",
    "name": "Saint Joseph's Hawks",
    "location": "Saint Joseph's",
    "lat": 40.001,
    "lng": -75.237
  },
  "139": {
    "abbr": "SLU",
    "name": "Saint Louis Billikens",
    "location": "Saint Louis",
    "lat": 38.637,
    "lng": -90.234
  },
  "2608": {
    "abbr": "SMC",
    "name": "Saint Mary's Gaels",
    "location": "Saint Mary's",
    "lat": 37.84,
    "lng": -122.108
  },
  "2612": {
    "abbr": "SPU",
    "name": "Saint Peter's Peacocks",
    "location": "Saint Peter's",
    "lat": 40.733,
    "lng": -74.063
  },
  "2534": {
    "abbr": "SHSU",
    "name": "Sam Houston Bearkats",
    "location": "Sam Houston",
    "lat": 30.714,
    "lng": -95.544
  },
  "2535": {
    "abbr": "SAM",
    "name": "Samford Bulldogs",
    "location": "Samford",
    "lat": 33.463,
    "lng": -86.794
  },
  "21": {
    "abbr": "SDSU",
    "name": "San Diego State Aztecs",
    "location": "San Diego State",
    "lat": 32.775,
    "lng": -117.071
  },
  "301": {
    "abbr": "USD",
    "name": "San Diego Toreros",
    "location": "San Diego",
    "lat": 32.771,
    "lng": -117.188
  },
  "2539": {
    "abbr": "SF",
    "name": "San Francisco Dons",
    "location": "San Francisco",
    "lat": 37.776,
    "lng": -122.451
  },
  "23": {
    "abbr": "SJSU",
    "name": "San Jos\u00e9 State Spartans",
    "location": "San Jos\u00e9 State",
    "lat": 37.335,
    "lng": -121.881
  },
  "2541": {
    "abbr": "SCU",
    "name": "Santa Clara Broncos",
    "location": "Santa Clara",
    "lat": 37.349,
    "lng": -121.939
  },
  "2547": {
    "abbr": "SEA",
    "name": "Seattle U Redhawks",
    "location": "Seattle U",
    "lat": 47.611,
    "lng": -122.317
  },
  "2550": {
    "abbr": "HALL",
    "name": "Seton Hall Pirates",
    "location": "Seton Hall",
    "lat": 40.742,
    "lng": -74.246
  },
  "2561": {
    "abbr": "SIE",
    "name": "Siena Saints",
    "location": "Siena",
    "lat": 42.719,
    "lng": -73.752
  },
  "6": {
    "abbr": "USA",
    "name": "South Alabama Jaguars",
    "location": "South Alabama",
    "lat": 30.696,
    "lng": -88.183
  },
  "2579": {
    "abbr": "SC",
    "name": "South Carolina Gamecocks",
    "location": "South Carolina",
    "lat": 33.993,
    "lng": -81.025
  },
  "2569": {
    "abbr": "SCST",
    "name": "South Carolina State Bulldogs",
    "location": "South Carolina State",
    "lat": 33.496,
    "lng": -80.862
  },
  "2908": {
    "abbr": "UPST",
    "name": "South Carolina Upstate Spartans",
    "location": "South Carolina Upstate",
    "lat": 33.993,
    "lng": -81.025
  },
  "233": {
    "abbr": "SDAK",
    "name": "South Dakota Coyotes",
    "location": "South Dakota",
    "lat": 42.89,
    "lng": -96.928
  },
  "2571": {
    "abbr": "SDST",
    "name": "South Dakota State Jackrabbits",
    "location": "South Dakota State",
    "lat": 44.312,
    "lng": -96.786
  },
  "58": {
    "abbr": "USF",
    "name": "South Florida Bulls",
    "location": "South Florida",
    "lat": 28.061,
    "lng": -82.413
  },
  "2546": {
    "abbr": "SEMO",
    "name": "Southeast Missouri State Redhawks",
    "location": "Southeast Missouri State",
    "lat": 38.94,
    "lng": -92.328
  },
  "79": {
    "abbr": "SIU",
    "name": "Southern Illinois Salukis",
    "location": "Southern Illinois",
    "lat": 37.714,
    "lng": -89.22
  },
  "2582": {
    "abbr": "SOU",
    "name": "Southern Jaguars",
    "location": "Southern",
    "lat": 30.526,
    "lng": -91.188
  },
  "2572": {
    "abbr": "USM",
    "name": "Southern Miss Golden Eagles",
    "location": "Southern Miss",
    "lat": 31.327,
    "lng": -89.335
  },
  "253": {
    "abbr": "SUU",
    "name": "Southern Utah Thunderbirds",
    "location": "Southern Utah",
    "lat": 37.677,
    "lng": -113.062
  },
  "179": {
    "abbr": "SBU",
    "name": "St. Bonaventure Bonnies",
    "location": "St. Bonaventure",
    "lat": 42.078,
    "lng": -78.48
  },
  "2599": {
    "abbr": "SJU",
    "name": "St. John's Red Storm",
    "location": "St. John's",
    "lat": 40.724,
    "lng": -73.794
  },
  "2900": {
    "abbr": "STMN",
    "name": "St. Thomas-Minnesota Tommies",
    "location": "St. Thomas-Minnesota",
    "lat": 44.974,
    "lng": -93.228
  },
  "24": {
    "abbr": "STAN",
    "name": "Stanford Cardinal",
    "location": "Stanford",
    "lat": 37.429,
    "lng": -122.17
  },
  "2617": {
    "abbr": "SFA",
    "name": "Stephen F. Austin Lumberjacks",
    "location": "Stephen F. Austin",
    "lat": 31.614,
    "lng": -94.649
  },
  "56": {
    "abbr": "STET",
    "name": "Stetson Hatters",
    "location": "Stetson",
    "lat": 29.045,
    "lng": -81.303
  },
  "284": {
    "abbr": "STO",
    "name": "Stonehill Skyhawks",
    "location": "Stonehill",
    "lat": 42.107,
    "lng": -71.111
  },
  "2619": {
    "abbr": "STBK",
    "name": "Stony Brook Seawolves",
    "location": "Stony Brook",
    "lat": 40.912,
    "lng": -73.123
  },
  "183": {
    "abbr": "SYR",
    "name": "Syracuse Orange",
    "location": "Syracuse",
    "lat": 43.039,
    "lng": -76.136
  },
  "2628": {
    "abbr": "TCU",
    "name": "TCU Horned Frogs",
    "location": "TCU",
    "lat": 32.71,
    "lng": -97.363
  },
  "2627": {
    "abbr": "TAR",
    "name": "Tarleton State Texans",
    "location": "Tarleton State",
    "lat": 32.218,
    "lng": -98.217
  },
  "218": {
    "abbr": "TEM",
    "name": "Temple Owls",
    "location": "Temple",
    "lat": 39.981,
    "lng": -75.155
  },
  "2634": {
    "abbr": "TNST",
    "name": "Tennessee State Tigers",
    "location": "Tennessee State",
    "lat": 36.168,
    "lng": -86.823
  },
  "2635": {
    "abbr": "TNTC",
    "name": "Tennessee Tech Golden Eagles",
    "location": "Tennessee Tech",
    "lat": 36.178,
    "lng": -85.508
  },
  "2633": {
    "abbr": "TENN",
    "name": "Tennessee Volunteers",
    "location": "Tennessee",
    "lat": 35.955,
    "lng": -83.93
  },
  "245": {
    "abbr": "TA&M",
    "name": "Texas A&M Aggies",
    "location": "Texas A&M",
    "lat": 30.611,
    "lng": -96.34
  },
  "357": {
    "abbr": "AMCC",
    "name": "Texas A&M-Corpus Christi Islanders",
    "location": "Texas A&M-Corpus Christi",
    "lat": 30.284,
    "lng": -97.733
  },
  "251": {
    "abbr": "TEX",
    "name": "Texas Longhorns",
    "location": "Texas",
    "lat": 30.284,
    "lng": -97.733
  },
  "2640": {
    "abbr": "TXSO",
    "name": "Texas Southern Tigers",
    "location": "Texas Southern",
    "lat": 29.725,
    "lng": -95.36
  },
  "326": {
    "abbr": "TXST",
    "name": "Texas State Bobcats",
    "location": "Texas State",
    "lat": 29.888,
    "lng": -97.944
  },
  "2641": {
    "abbr": "TTU",
    "name": "Texas Tech Red Raiders",
    "location": "Texas Tech",
    "lat": 33.584,
    "lng": -101.845
  },
  "2643": {
    "abbr": "CIT",
    "name": "The Citadel Bulldogs",
    "location": "The Citadel",
    "lat": 32.798,
    "lng": -79.958
  },
  "2649": {
    "abbr": "TOL",
    "name": "Toledo Rockets",
    "location": "Toledo",
    "lat": 41.658,
    "lng": -83.612
  },
  "119": {
    "abbr": "TOW",
    "name": "Towson Tigers",
    "location": "Towson",
    "lat": 39.394,
    "lng": -76.607
  },
  "2653": {
    "abbr": "TROY",
    "name": "Troy Trojans",
    "location": "Troy",
    "lat": 31.798,
    "lng": -85.968
  },
  "2655": {
    "abbr": "TULN",
    "name": "Tulane Green Wave",
    "location": "Tulane",
    "lat": 29.94,
    "lng": -90.121
  },
  "202": {
    "abbr": "TLSA",
    "name": "Tulsa Golden Hurricane",
    "location": "Tulsa",
    "lat": 36.154,
    "lng": -95.993
  },
  "5": {
    "abbr": "UAB",
    "name": "UAB Blazers",
    "location": "UAB",
    "lat": 33.502,
    "lng": -86.806
  },
  "399": {
    "abbr": "UALB",
    "name": "UAlbany Great Danes",
    "location": "UAlbany",
    "lat": 42.686,
    "lng": -73.824
  },
  "302": {
    "abbr": "UCD",
    "name": "UC Davis Aggies",
    "location": "UC Davis",
    "lat": 38.538,
    "lng": -121.762
  },
  "300": {
    "abbr": "UCI",
    "name": "UC Irvine Anteaters",
    "location": "UC Irvine",
    "lat": 33.643,
    "lng": -117.842
  },
  "27": {
    "abbr": "UCR",
    "name": "UC Riverside Highlanders",
    "location": "UC Riverside",
    "lat": 33.975,
    "lng": -117.328
  },
  "28": {
    "abbr": "UCSD",
    "name": "UC San Diego Tritons",
    "location": "UC San Diego",
    "lat": 32.88,
    "lng": -117.234
  },
  "2540": {
    "abbr": "UCSB",
    "name": "UC Santa Barbara Gauchos",
    "location": "UC Santa Barbara",
    "lat": 34.414,
    "lng": -119.849
  },
  "2116": {
    "abbr": "UCF",
    "name": "UCF Knights",
    "location": "UCF",
    "lat": 28.602,
    "lng": -81.2
  },
  "26": {
    "abbr": "UCLA",
    "name": "UCLA Bruins",
    "location": "UCLA",
    "lat": 34.071,
    "lng": -118.445
  },
  "41": {
    "abbr": "CONN",
    "name": "UConn Huskies",
    "location": "UConn",
    "lat": 41.808,
    "lng": -72.249
  },
  "82": {
    "abbr": "UIC",
    "name": "UIC Flames",
    "location": "UIC",
    "lat": 41.869,
    "lng": -87.648
  },
  "2433": {
    "abbr": "ULM",
    "name": "UL Monroe Warhawks",
    "location": "UL Monroe",
    "lat": 32.529,
    "lng": -92.076
  },
  "2378": {
    "abbr": "UMBC",
    "name": "UMBC Retrievers",
    "location": "UMBC",
    "lat": 39.254,
    "lng": -76.714
  },
  "2349": {
    "abbr": "UML",
    "name": "UMass Lowell River Hawks",
    "location": "UMass Lowell",
    "lat": 42.654,
    "lng": -71.325
  },
  "2427": {
    "abbr": "UNCA",
    "name": "UNC Asheville Bulldogs",
    "location": "UNC Asheville",
    "lat": 35.613,
    "lng": -82.565
  },
  "2430": {
    "abbr": "UNCG",
    "name": "UNC Greensboro Spartans",
    "location": "UNC Greensboro",
    "lat": 36.069,
    "lng": -79.81
  },
  "350": {
    "abbr": "UNCW",
    "name": "UNC Wilmington Seahawks",
    "location": "UNC Wilmington",
    "lat": 34.226,
    "lng": -77.873
  },
  "2439": {
    "abbr": "UNLV",
    "name": "UNLV Rebels",
    "location": "UNLV",
    "lat": 36.108,
    "lng": -115.143
  },
  "30": {
    "abbr": "USC",
    "name": "USC Trojans",
    "location": "USC",
    "lat": 34.022,
    "lng": -118.286
  },
  "250": {
    "abbr": "UTA",
    "name": "UT Arlington Mavericks",
    "location": "UT Arlington",
    "lat": 32.731,
    "lng": -97.111
  },
  "2630": {
    "abbr": "UTM",
    "name": "UT Martin Skyhawks",
    "location": "UT Martin",
    "lat": 36.343,
    "lng": -88.864
  },
  "292": {
    "abbr": "RGV",
    "name": "UT Rio Grande Valley Vaqueros",
    "location": "UT Rio Grande Valley",
    "lat": 26.305,
    "lng": -98.175
  },
  "2638": {
    "abbr": "UTEP",
    "name": "UTEP Miners",
    "location": "UTEP",
    "lat": 31.772,
    "lng": -106.505
  },
  "2636": {
    "abbr": "UTSA",
    "name": "UTSA Roadrunners",
    "location": "UTSA",
    "lat": 29.582,
    "lng": -98.619
  },
  "328": {
    "abbr": "USU",
    "name": "Utah State Aggies",
    "location": "Utah State",
    "lat": 41.745,
    "lng": -111.81
  },
  "3101": {
    "abbr": "UTU",
    "name": "Utah Tech Trailblazers",
    "location": "Utah Tech",
    "lat": 40.765,
    "lng": -111.843
  },
  "254": {
    "abbr": "UTAH",
    "name": "Utah Utes",
    "location": "Utah",
    "lat": 40.765,
    "lng": -111.843
  },
  "3084": {
    "abbr": "UVU",
    "name": "Utah Valley Wolverines",
    "location": "Utah Valley",
    "lat": 40.765,
    "lng": -111.843
  },
  "2670": {
    "abbr": "VCU",
    "name": "VCU Rams",
    "location": "VCU",
    "lat": 37.549,
    "lng": -77.453
  },
  "2678": {
    "abbr": "VMI",
    "name": "VMI Keydets",
    "location": "VMI",
    "lat": 37.79,
    "lng": -79.436
  },
  "2674": {
    "abbr": "VAL",
    "name": "Valparaiso Beacons",
    "location": "Valparaiso",
    "lat": 41.462,
    "lng": -87.04
  },
  "238": {
    "abbr": "VAN",
    "name": "Vanderbilt Commodores",
    "location": "Vanderbilt",
    "lat": 36.144,
    "lng": -86.803
  },
  "261": {
    "abbr": "UVM",
    "name": "Vermont Catamounts",
    "location": "Vermont",
    "lat": 44.478,
    "lng": -73.195
  },
  "222": {
    "abbr": "VILL",
    "name": "Villanova Wildcats",
    "location": "Villanova",
    "lat": 40.038,
    "lng": -75.346
  },
  "258": {
    "abbr": "UVA",
    "name": "Virginia Cavaliers",
    "location": "Virginia",
    "lat": 38.033,
    "lng": -78.508
  },
  "259": {
    "abbr": "VT",
    "name": "Virginia Tech Hokies",
    "location": "Virginia Tech",
    "lat": 37.228,
    "lng": -80.424
  },
  "2681": {
    "abbr": "WAG",
    "name": "Wagner Seahawks",
    "location": "Wagner",
    "lat": 40.617,
    "lng": -74.095
  },
  "154": {
    "abbr": "WAKE",
    "name": "Wake Forest Demon Deacons",
    "location": "Wake Forest",
    "lat": 36.135,
    "lng": -80.279
  },
  "264": {
    "abbr": "WASH",
    "name": "Washington Huskies",
    "location": "Washington",
    "lat": 47.655,
    "lng": -122.303
  },
  "265": {
    "abbr": "WSU",
    "name": "Washington State Cougars",
    "location": "Washington State",
    "lat": 47.655,
    "lng": -122.303
  },
  "2692": {
    "abbr": "WEB",
    "name": "Weber State Wildcats",
    "location": "Weber State",
    "lat": 41.192,
    "lng": -111.934
  },
  "2698": {
    "abbr": "WGA",
    "name": "West Georgia Wolves",
    "location": "West Georgia",
    "lat": 33.948,
    "lng": -83.373
  },
  "277": {
    "abbr": "WVU",
    "name": "West Virginia Mountaineers",
    "location": "West Virginia",
    "lat": 39.636,
    "lng": -79.955
  },
  "2717": {
    "abbr": "WCU",
    "name": "Western Carolina Catamounts",
    "location": "Western Carolina",
    "lat": 35.31,
    "lng": -83.186
  },
  "2710": {
    "abbr": "WIU",
    "name": "Western Illinois Leathernecks",
    "location": "Western Illinois",
    "lat": 40.477,
    "lng": -90.682
  },
  "98": {
    "abbr": "WKU",
    "name": "Western Kentucky Hilltoppers",
    "location": "Western Kentucky",
    "lat": 36.987,
    "lng": -86.453
  },
  "2711": {
    "abbr": "WMU",
    "name": "Western Michigan Broncos",
    "location": "Western Michigan",
    "lat": 42.283,
    "lng": -85.614
  },
  "2724": {
    "abbr": "WICH",
    "name": "Wichita State Shockers",
    "location": "Wichita State",
    "lat": 37.721,
    "lng": -97.296
  },
  "2729": {
    "abbr": "W&M",
    "name": "William & Mary Tribe",
    "location": "William & Mary",
    "lat": 37.272,
    "lng": -76.719
  },
  "2737": {
    "abbr": "WIN",
    "name": "Winthrop Eagles",
    "location": "Winthrop",
    "lat": 34.943,
    "lng": -81.03
  },
  "275": {
    "abbr": "WIS",
    "name": "Wisconsin Badgers",
    "location": "Wisconsin",
    "lat": 43.076,
    "lng": -89.412
  },
  "2747": {
    "abbr": "WOF",
    "name": "Wofford Terriers",
    "location": "Wofford",
    "lat": 34.95,
    "lng": -81.93
  },
  "2750": {
    "abbr": "WRST",
    "name": "Wright State Raiders",
    "location": "Wright State",
    "lat": 39.782,
    "lng": -84.061
  },
  "2751": {
    "abbr": "WYO",
    "name": "Wyoming Cowboys",
    "location": "Wyoming",
    "lat": 41.313,
    "lng": -105.588
  },
  "2752": {
    "abbr": "XAV",
    "name": "Xavier Musketeers",
    "location": "Xavier",
    "lat": 39.15,
    "lng": -84.473
  },
  "43": {
    "abbr": "YALE",
    "name": "Yale Bulldogs",
    "location": "Yale",
    "lat": 41.311,
    "lng": -72.924
  },
  "2754": {
    "abbr": "YSU",
    "name": "Youngstown State Penguins",
    "location": "Youngstown State",
    "lat": 41.106,
    "lng": -80.646
  },
  "2124": {
    "abbr": "CHAM",
    "name": "Chaminade",
    "location": "Chaminade",
    "lat": 21.299,
    "lng": -157.815
  },
  "2511": {
    "abbr": "QUEE",
    "name": "Queens University",
    "location": "Queens University",
    "lat": 35.191,
    "lng": -80.795
  },
  "2542": {
    "abbr": "SAVS",
    "name": "Savannah State",
    "location": "Savannah State",
    "lat": 32.053,
    "lng": -81.103
  },
  "2597": {
    "abbr": "SFBK",
    "name": "St. Francis Brooklyn",
    "location": "St. Francis Brooklyn",
    "lat": 40.697,
    "lng": -73.976
  },
  "2815": {
    "abbr": "LIND",
    "name": "Lindenwood",
    "location": "Lindenwood",
    "lat": 38.788,
    "lng": -90.683
  },
  "42": {
    "abbr": "HART",
    "name": "Hartford",
    "location": "Hartford",
    "lat": 41.766,
    "lng": -72.673
  },
  "6446": {
    "abbr": "LIUB",
    "name": "LIU Brooklyn",
    "location": "LIU Brooklyn",
    "lat": 40.689,
    "lng": -73.978
  },
  "88": {
    "abbr": "USI",
    "name": "Southern Indiana",
    "location": "Southern Indiana",
    "lat": 38.011,
    "lng": -87.572
  },
  "53": {
    "abbr": "FIT",
    "name": "Florida Tech",
    "location": "Florida Tech",
    "lat": 28.065,
    "lng": -80.623
  },
  "2267": {
    "abbr": "HIL",
    "name": "Hawai'i Hilo",
    "location": "Hawai'i Hilo",
    "lat": 19.721,
    "lng": -155.083
  },
  "355": {
    "abbr": "ONED",
    "name": "SUNY-Oneonta",
    "location": "SUNY-Oneonta",
    "lat": 42.453,
    "lng": -75.064
  },
  "144": {
    "abbr": "FPU",
    "name": "Franklin Pierce",
    "location": "Franklin Pierce",
    "lat": 42.862,
    "lng": -72.004
  },
  "2120": {
    "abbr": "CWU",
    "name": "Central Washington",
    "location": "Central Washington",
    "lat": 46.998,
    "lng": -120.548
  },
  "2227": {
    "abbr": "FMU",
    "name": "Florida Memorial",
    "location": "Florida Memorial",
    "lat": 25.943,
    "lng": -80.173
  },
  "2228": {
    "abbr": "FLAG",
    "name": "Flagler",
    "location": "Flagler",
    "lat": 29.895,
    "lng": -81.315
  },
  "224": {
    "abbr": "WEST",
    "name": "Westminster (UT)",
    "location": "Westminster (UT)",
    "lat": 40.731,
    "lng": -111.852
  },
  "2257": {
    "abbr": "GRNV",
    "name": "Greenville",
    "location": "Greenville",
    "lat": 34.853,
    "lng": -82.394
  },
  "2269": {
    "abbr": "HPU",
    "name": "Hawai'i Pacific",
    "location": "Hawai'i Pacific",
    "lat": 21.307,
    "lng": -157.858
  },
  "2324": {
    "abbr": "LANG",
    "name": "Langston",
    "location": "Langston",
    "lat": 35.947,
    "lng": -97.26
  },
  "2347": {
    "abbr": "LACH",
    "name": "Louisiana Christian",
    "location": "Louisiana Christian",
    "lat": 31.333,
    "lng": -92.411
  },
  "2353": {
    "abbr": "LSUS",
    "name": "LSU Shreveport",
    "location": "LSU Shreveport",
    "lat": 32.445,
    "lng": -93.747
  },
  "2370": {
    "abbr": "TNSO",
    "name": "Tennessee Southern",
    "location": "Tennessee Southern",
    "lat": 35.046,
    "lng": -85.681
  },
  "2419": {
    "abbr": "MSJC",
    "name": "Mount St. Joseph",
    "location": "Mount St. Joseph",
    "lat": 39.118,
    "lng": -84.636
  },
  "2465": {
    "abbr": "NWU",
    "name": "Northwest University",
    "location": "Northwest University",
    "lat": 47.75,
    "lng": -122.27
  },
  "2474": {
    "abbr": "OCC",
    "name": "Oakland City",
    "location": "Oakland City",
    "lat": 38.339,
    "lng": -87.345
  },
  "2486": {
    "abbr": "PLU",
    "name": "Pacific Lutheran",
    "location": "Pacific Lutheran",
    "lat": 47.146,
    "lng": -122.449
  },
  "2488": {
    "abbr": "PAIN",
    "name": "Paine",
    "location": "Paine",
    "lat": 33.474,
    "lng": -82.0
  },
  "2503": {
    "abbr": "PRMA",
    "name": "Puerto Rico-Mayaguez",
    "location": "Puerto Rico-Mayaguez",
    "lat": 18.201,
    "lng": -67.14
  },
  "2632": {
    "abbr": "TWC",
    "name": "Tennessee Wesleyan",
    "location": "Tennessee Wesleyan",
    "lat": 35.44,
    "lng": -84.594
  },
  "2703": {
    "abbr": "WNMU",
    "name": "Western New Mexico",
    "location": "Western New Mexico",
    "lat": 32.773,
    "lng": -108.28
  },
  "2810": {
    "abbr": "HDSM",
    "name": "Hardin-Simmons",
    "location": "Hardin-Simmons",
    "lat": 32.449,
    "lng": -99.733
  },
  "286": {
    "abbr": "NCWC",
    "name": "NC Wesleyan",
    "location": "NC Wesleyan",
    "lat": 35.773,
    "lng": -77.38
  },
  "2887": {
    "abbr": "NNU",
    "name": "Northwest Nazarene",
    "location": "Northwest Nazarene",
    "lat": 43.564,
    "lng": -116.543
  },
  "2889": {
    "abbr": "PRBY",
    "name": "Puerto Rico-Bayamon",
    "location": "Puerto Rico-Bayamon",
    "lat": 18.399,
    "lng": -66.155
  },
  "2920": {
    "abbr": "MOB",
    "name": "Mobile",
    "location": "Mobile",
    "lat": 30.695,
    "lng": -88.04
  },
  "3066": {
    "abbr": "CSP",
    "name": "Concordia-St. Paul",
    "location": "Concordia-St. Paul",
    "lat": 44.938,
    "lng": -93.165
  },
  "3078": {
    "abbr": "JESU",
    "name": "Jessup University",
    "location": "Jessup University",
    "lat": 38.721,
    "lng": -121.279
  },
  "3117": {
    "abbr": "CARV",
    "name": "Carver College",
    "location": "Carver College",
    "lat": 33.757,
    "lng": -84.397
  },
  "3141": {
    "abbr": "NNNM",
    "name": "Northern New Mexico",
    "location": "Northern New Mexico",
    "lat": 36.057,
    "lng": -106.085
  },
  "3158": {
    "abbr": "OLOL",
    "name": "Our Lady Of The Lake",
    "location": "Our Lady Of The Lake",
    "lat": 29.424,
    "lng": -98.494
  },
  "3179": {
    "abbr": "PONT",
    "name": "Point",
    "location": "Point",
    "lat": 34.379,
    "lng": -85.178
  },
  "3189": {
    "abbr": "CGEO",
    "name": "Coastal Georgia",
    "location": "Coastal Georgia",
    "lat": 31.152,
    "lng": -81.496
  },
  "3218": {
    "abbr": "NWIN",
    "name": "Northwest Indian",
    "location": "Northwest Indian",
    "lat": 47.69,
    "lng": -117.426
  },
  "3243": {
    "abbr": "BOBJ",
    "name": "Bob Jones",
    "location": "Bob Jones",
    "lat": 34.853,
    "lng": -82.394
  },
  "3249": {
    "abbr": "SKAT",
    "name": "Saint Katherine",
    "location": "Saint Katherine",
    "lat": 33.501,
    "lng": -117.662
  },
  "330": {
    "abbr": "VSU",
    "name": "Virginia State",
    "location": "Virginia State",
    "lat": 37.236,
    "lng": -77.415
  },
  "380": {
    "abbr": "ANSC",
    "name": "Anderson (SC)",
    "location": "Anderson (SC)",
    "lat": 34.504,
    "lng": -82.651
  },
  "435": {
    "abbr": "PRRP",
    "name": "Puerto Rico-Rio Piedras",
    "location": "Puerto Rico-Rio Piedras",
    "lat": 18.404,
    "lng": -66.05
  },
  "531": {
    "abbr": "PRMT",
    "name": "Providence (MT)",
    "location": "Providence (MT)",
    "lat": 46.866,
    "lng": -114.01
  },
  "6183": {
    "abbr": "HUMB",
    "name": "Humboldt State",
    "location": "Humboldt State",
    "lat": 40.876,
    "lng": -124.079
  },
  "1": {
    "abbr": "AKAC",
    "name": "Alaska Anchorage",
    "location": "Alaska Anchorage",
    "lat": 61.19,
    "lng": -149.828
  },
  "107730": {
    "abbr": "FLNA",
    "name": "Florida National",
    "location": "Florida National",
    "lat": 29.211,
    "lng": -81.023
  },
  "109670": {
    "abbr": "LPAC",
    "name": "Life Pacific",
    "location": "Life Pacific",
    "lat": 33.501,
    "lng": -117.662
  },
  "110031": {
    "abbr": "BENM",
    "name": "Benedictine Mesa",
    "location": "Benedictine Mesa",
    "lat": 33.415,
    "lng": -111.831
  },
  "111946": {
    "abbr": "CARV",
    "name": "Carver College",
    "location": "Carver College",
    "lat": 33.757,
    "lng": -84.397
  },
  "112686": {
    "abbr": "HSAP",
    "name": "Health Sciences",
    "location": "Health Sciences & Pharmacy",
    "lat": 42.651,
    "lng": -73.777
  },
  "130201": {
    "abbr": "NOBL",
    "name": "Nobel",
    "location": "Nobel",
    "lat": 33.757,
    "lng": -84.397
  }
}